City_ID,City,Lat,Lng,Max Temp,Humidity,Cloudiness,Wind Speed,Country,Date
0,crane,31.3974,-102.3501,19.47,11,3,2.72,US,1712545631
1,bonthe,7.5264,-12.505,25.82,86,70,2.03,SL,1712545798
2,puerto natales,-51.7236,-72.4875,2.97,73,100,3.38,CL,1712545700
3,san antonio de pale,-1.4014,5.6325,28.24,79,91,4.33,GQ,1712545800
4,hermanus,-34.4187,19.2345,17.11,94,100,9.72,ZA,1712545641
5,kismayo,-0.3582,42.5454,28.47,79,100,3.58,SO,1712545801
6,edinburgh of the seven seas,-37.0676,-12.3116,18.47,95,100,7.14,SH,1712545591
7,extrema,-22.8547,-46.3183,17.21,92,27,2.29,BR,1712545385
8,porto novo,6.4965,2.6036,27.29,87,97,2.61,BJ,1712545723
9,puerto armuelles,8.2833,-82.8667,28.99,71,100,1.34,PA,1712545803
10,tuy hoa,13.0833,109.3,32.65,48,68,3.22,VN,1712545803
11,ngetkib,7.3645,134.5148,29.3,71,48,5.26,PW,1712545804
12,puerto ayora,-0.7393,-90.3518,24.75,98,83,1.52,EC,1712545729
13,bela,25.9333,81.9833,32.43,11,26,0.77,IN,1712545805
14,waitangi,-43.9535,-176.5597,13.23,80,100,0.89,NZ,1712545592
15,bethal,-26.4579,29.4655,13.08,91,100,3.95,ZA,1712545806
16,palikir - national government center,6.9248,158.1611,27.41,83,100,4.63,FM,1712545806
17,bredasdorp,-34.5322,20.0403,18.22,93,100,8.86,ZA,1712545780
18,muncar,-8.4333,114.3333,28.52,83,93,1.65,ID,1712545807
19,pagar alam,-4.0167,103.2667,27.37,73,95,1.28,ID,1712545807
20,umluj,25.0213,37.2685,22.23,49,5,2.83,SA,1712545586
21,blackmans bay,-43.0167,147.3167,17.07,52,95,0.45,AU,1712545754
22,rikaze,29.25,88.8833,5.8,29,0,1.77,CN,1712545809
23,freetown,8.484,-13.2299,25.24,85,51,2.1,SL,1712545810
24,port-aux-francais,-49.35,70.2167,5.37,59,82,7.26,TF,1712545591
25,adamstown,-25.066,-130.1015,23.97,86,77,4.28,PN,1712545501
26,huarmey,-10.0681,-78.1522,22.94,82,91,2.81,PE,1712545613
27,sao joao evangelista,-18.5478,-42.7633,16.4,94,2,1.19,BR,1712545811
28,grytviken,-54.2811,-36.5092,1.83,73,3,2.93,GS,1712545592
29,kyzyl,51.7,94.45,10.57,56,100,1.34,RU,1712545812
30,codrington,-38.2667,141.9667,16.65,64,100,8.54,AU,1712545612
31,lihue,21.9789,-159.3672,26.58,71,100,7.2,US,1712545726
32,atamyrat,37.8357,65.2106,20.43,31,16,0.91,TM,1712545813
33,iqaluit,63.7506,-68.5145,-15.15,78,0,6.69,CA,1712545596
34,arraial do cabo,-22.9661,-42.0278,24.0,87,4,5.82,BR,1712545814
35,taoudenni,22.6783,-3.9836,30.52,10,38,3.52,ML,1712545754
36,ibarreta,-25.2144,-59.8585,21.48,99,45,1.91,AR,1712545815
37,atafu village,-8.5421,-172.5159,29.46,73,56,3.2,TK,1712545815
38,anjala,60.6833,26.8333,3.51,97,11,2.9,FI,1712545816
39,enewetak,11.3474,162.3373,27.49,78,57,8.31,MH,1712545599
40,milton-freewater,45.9326,-118.3877,10.64,61,100,2.06,US,1712545817
41,east london,-33.0153,27.9116,19.62,80,100,6.99,ZA,1712545706
42,alice springs,-23.7,133.8833,28.45,20,6,4.63,AU,1712545818
43,bilibino,68.0546,166.4372,-11.56,81,87,1.47,RU,1712545745
44,anadyr,64.75,177.4833,-11.72,78,20,8.0,RU,1712545819
45,vrangel',42.7297,133.0839,10.44,36,98,5.51,RU,1712545819
46,shalqar,47.8333,59.6,7.92,74,52,6.63,KZ,1712545820
47,bull savanna,17.8868,-77.5902,24.58,81,0,3.71,JM,1712545820
48,happy valley-goose bay,53.3168,-60.3315,-1.85,84,50,1.52,CA,1712545721
49,invercargill,-46.4,168.35,18.9,70,90,3.13,NZ,1712545775
50,barentu,15.1139,37.5928,23.94,59,66,0.42,ER,1712545821
51,vadso,70.0744,29.7487,-1.91,74,75,8.75,NO,1712545635
52,bhattiprolu,16.1,80.7833,32.09,79,0,3.13,IN,1712545823
53,ribeira grande,38.5167,-28.7,14.32,89,95,2.24,PT,1712545595
54,plastun,44.7561,136.2939,10.65,27,20,5.81,RU,1712545823
55,gazli,40.1333,63.45,17.57,45,90,3.79,UZ,1712545824
56,longyearbyen,78.2186,15.6401,-18.09,71,40,3.09,SJ,1712545737
57,oranjemund,-28.55,16.4333,15.51,85,70,7.89,NA,1712545619
58,ta`u,-14.2336,-169.5144,29.46,76,56,4.88,AS,1712545783
59,albany,42.6001,-73.9662,4.3,70,0,1.93,US,1712545595
60,la passe,45.5549,-0.8967,10.55,95,100,4.41,FR,1712545707
61,new norfolk,-42.7826,147.0587,17.73,52,82,3.88,AU,1712545596
62,thompson,55.7435,-97.8558,-0.15,97,65,1.29,CA,1712545601
63,hamilton,39.1834,-84.5333,16.69,35,100,6.69,US,1712545672
64,kirakira,-10.4544,161.9205,29.58,72,98,3.46,SB,1712545828
65,stanley,54.868,-1.6985,6.55,83,0,3.6,GB,1712545505
66,lompoc,34.6391,-120.4579,12.66,81,0,9.26,US,1712545829
67,west island,-12.1568,96.8225,28.99,79,75,6.17,CC,1712545727
68,tazovsky,67.4667,78.7,-4.1,94,100,7.87,RU,1712545604
69,sao tome,0.3365,6.7273,28.05,80,100,1.92,ST,1712545830
70,isafjordur,66.0755,-23.124,-4.82,85,96,11.34,IS,1712545723
71,ancud,-41.8697,-73.8203,13.28,99,100,5.15,CL,1712545758
72,ad dilam,23.9915,47.1627,24.23,44,86,5.52,SA,1712545831
73,miyaly,48.8844,53.7836,6.15,86,70,4.54,KZ,1712545832
74,usinsk,65.9939,57.5281,-9.4,88,88,5.36,RU,1712545626
75,bubaque,11.2833,-15.8333,25.19,67,9,4.65,GW,1712545832
76,quang ngai,15.1167,108.8,34.19,47,54,3.32,VN,1712545833
77,kodiak,57.79,-152.4072,3.73,81,40,3.09,US,1712545753
78,coquimbo,-29.9533,-71.3436,14.85,88,75,1.03,CL,1712545262
79,mstsislaw,54.0192,31.7257,7.26,91,100,3.96,BY,1712545834
80,kingston,17.997,-76.7936,28.53,79,20,2.06,JM,1712545736
81,belel,7.05,14.4333,19.64,66,91,0.95,CM,1712545835
82,tlacolula de matamoros,16.95,-96.4833,21.09,65,65,2.6,MX,1712545835
83,port elizabeth,-33.918,25.5701,17.4,91,100,1.34,ZA,1712545762
84,weno,7.4515,151.8468,28.27,77,62,7.49,FM,1712545720
85,saint-pierre,-21.3393,55.4781,23.82,69,0,3.09,RE,1712545525
86,moranbah,-22.0016,148.0466,30.41,41,59,4.17,AU,1712545837
87,port lincoln,-34.7333,135.8667,16.94,74,78,6.8,AU,1712545838
88,punta arenas,-53.15,-70.9167,2.06,87,20,12.86,CL,1712545768
89,nizhnesortymskiy,62.4397,71.7603,-3.68,96,100,8.25,RU,1712545749
90,makar'yev,57.8797,43.8069,3.73,94,100,5.04,RU,1712545839
91,homer,59.6425,-151.5483,5.94,46,0,5.66,US,1712545839
92,soio,-6.1349,12.3689,26.73,86,100,1.2,AO,1712545840
93,port mathurin,-19.6833,63.4167,26.92,80,16,4.67,MU,1712545840
94,paracuru,-3.41,-39.0306,26.17,89,95,1.68,BR,1712545841
95,necochea,-38.5473,-58.7368,17.13,71,67,4.1,AR,1712545684
96,tromso,69.6496,18.957,-1.99,93,100,2.57,NO,1712545734
97,yermentau,51.6214,73.1069,9.27,68,77,5.53,KZ,1712545842
98,doctor arroyo,23.6667,-100.1833,20.51,27,2,2.09,MX,1712545842
99,balzar,-1.3667,-79.9,24.57,91,95,0.73,EC,1712545842
100,nova sintra,14.8667,-24.7167,23.37,76,0,11.82,CV,1712545843
101,novyy urengoy,66.0833,76.6333,-3.81,95,100,8.48,RU,1712545708
102,sao joao da barra,-21.6403,-41.0511,24.23,79,0,2.22,BR,1712545633
103,magdagachi,53.45,125.8,-2.69,46,6,2.97,RU,1712545844
104,ilulissat,69.2167,-51.1,-9.99,85,100,1.54,GL,1712545746
105,ryotsu-minato,38.0833,138.4333,16.62,58,100,1.14,JP,1712545554
106,coahuayana de hidalgo,18.7,-103.6583,20.7,88,30,0.7,MX,1712545845
107,udachny,66.4167,112.4,-12.53,67,9,1.87,RU,1712545708
108,hithadhoo,-0.6,73.0833,28.79,73,100,1.88,MV,1712545601
109,tralee,52.2704,-9.7026,6.5,88,100,1.37,IE,1712545642
110,hasaki,35.7333,140.8333,22.94,75,100,3.7,JP,1712545633
111,college,64.8569,-147.8028,3.18,64,0,2.57,US,1712545710
112,trenggalek,-8.05,111.7167,28.64,83,100,1.22,ID,1712545848
113,carnarvon,-24.8667,113.6333,30.67,34,17,3.81,AU,1712545730
114,fort riley north,39.1108,-96.8139,13.5,45,0,2.57,US,1712545813
115,chonchi,-42.6128,-73.8092,10.07,99,100,0.83,CL,1712545849
116,fortuna,40.5982,-124.1573,10.92,87,40,5.14,US,1712545842
117,ilheus,-14.7889,-39.0494,22.13,86,2,3.1,BR,1712545581
118,sarykemer,43.0,71.5,12.71,32,64,1.81,KZ,1712545850
119,yellowknife,62.456,-114.3525,3.56,89,100,2.24,CA,1712545603
120,ocean shores,46.9737,-124.1563,9.45,74,75,4.63,US,1712545851
121,pacific grove,36.6177,-121.9166,12.46,79,75,6.26,US,1712545751
122,fenoarivo be,-18.4333,46.5667,18.31,84,30,1.28,MG,1712545852
123,kupang,-10.1667,123.5833,33.32,75,20,3.09,ID,1712545738
124,whitehorse,60.7161,-135.0538,1.84,55,100,2.24,CA,1712545616
125,pajeczno,51.1445,18.9961,15.38,77,100,4.81,PL,1712545853
126,ulladulla,-35.35,150.4667,24.32,75,60,3.71,AU,1712545854
127,guerrero negro,27.9769,-114.0611,15.03,69,28,8.35,MX,1712545743
128,jamestown,42.097,-79.2353,8.8,36,0,5.14,US,1712545854
129,afaahiti,-17.75,-149.2833,29.48,80,80,4.24,PF,1712545855
130,vorgashor,67.5833,63.95,-12.33,96,98,6.12,RU,1712545771
131,byron bay,-28.65,153.6167,28.17,48,63,1.28,AU,1712545856
132,yunak,38.8142,31.7322,3.18,74,99,3.06,TR,1712545856
133,papatowai,-46.5619,169.4708,14.41,70,100,2.13,NZ,1712545713
134,la'ie,21.6477,-157.9253,26.98,73,10,4.02,US,1712545857
135,awash,8.9833,40.1667,23.66,60,20,1.26,ET,1712545857
136,saipan,15.1355,145.701,31.39,58,40,8.75,MP,1712545747
137,yuxi,24.355,102.5422,27.25,26,100,4.04,CN,1712545858
138,rabo de peixe,37.8,-25.5833,14.73,88,40,4.12,PT,1712545859
139,iskateley,67.6803,53.1512,-11.66,90,67,4.92,RU,1712545734
140,geraldton,-28.7667,114.6,34.23,14,89,10.8,AU,1712545859
141,haiku-pauwela,20.9219,-156.3051,24.57,68,40,10.29,US,1712545647
142,lebu,-37.6167,-73.65,13.05,98,100,2.3,CL,1712545748
143,utrik,11.2278,169.8474,27.01,82,100,9.19,MH,1712545774
144,maumere,-8.6199,122.2111,28.53,81,76,1.24,ID,1712545861
145,diego de almagro,-26.3667,-70.05,17.16,50,0,0.12,CL,1712545862
146,aden,12.7794,45.0367,27.44,77,5,6.19,YE,1712545694
147,rota,36.6224,-6.3586,15.12,82,0,3.6,ES,1712545863
148,olonkinbyen,70.9221,-8.7187,-4.05,64,100,8.83,SJ,1712545592
149,ola,59.5833,151.2833,0.63,82,100,13.06,RU,1712545864
150,valparaiso,-33.0393,-71.6273,11.8,87,0,0.0,CL,1712545857
151,tiksi,71.6872,128.8694,-12.88,77,4,7.47,RU,1712545734
152,kone,-21.0595,164.8658,31.16,45,100,2.12,NC,1712545682
153,morro do chapeu,-11.55,-41.1561,17.96,93,100,4.45,BR,1712545737
154,caluula,11.9661,50.7569,27.44,61,12,3.78,SO,1712545866
155,dunedin,-45.8742,170.5036,15.06,76,100,2.95,NZ,1712545867
156,la sarre,48.8002,-79.1996,0.53,90,1,0.95,CA,1712545603
157,tadine,-21.55,167.8833,26.49,73,100,4.95,NC,1712545868
158,chongwe,-15.3292,28.682,18.16,86,64,1.76,ZM,1712545868
159,fort mcmurray,56.7268,-111.381,6.58,59,83,2.02,CA,1712545737
160,qaqortoq,60.7167,-46.0333,-5.68,94,100,1.19,GL,1712545775
161,tambacounda,13.7539,-13.7586,31.03,33,0,3.09,SN,1712545870
162,constantia,44.1833,28.65,8.38,88,1,3.51,RO,1712545870
163,plouzane,48.3833,-4.6167,11.61,90,75,6.17,FR,1712545870
164,tamandare,-8.7597,-35.1047,26.36,85,79,2.35,BR,1712545871
165,maumelle,34.8668,-92.4043,18.82,52,0,2.6,US,1712545871
166,dudinka,69.4058,86.1778,-7.4,92,100,10.73,RU,1712545614
167,malesherbes,48.2957,2.4094,11.36,97,98,1.85,FR,1712545872
168,namsos,64.4662,11.4957,5.03,93,20,4.12,NO,1712545661
169,avarua,-21.2078,-159.775,26.03,94,40,2.06,CK,1712545607
170,kurchatov,51.6601,35.6521,7.23,86,100,2.24,RU,1712545873
171,ushuaia,-54.8,-68.3,1.81,93,100,2.06,AR,1712545416
172,selfoss,63.9331,-20.9971,0.37,51,97,9.16,IS,1712545874
173,urangan,-25.3,152.9,25.11,91,55,2.68,AU,1712545875
174,jieshi,22.8134,115.8257,23.11,90,100,2.18,CN,1712545875
175,oederan,50.8667,13.1667,18.91,73,92,3.23,DE,1712545875
176,leh,34.1667,77.5833,-9.07,66,18,1.01,IN,1712545876
177,luderitz,-26.6481,15.1594,14.77,86,36,2.75,NA,1712545876
178,margaret river,-33.95,115.0667,21.07,42,3,5.05,AU,1712545710
179,mountain home,43.133,-115.6912,6.35,74,0,4.12,US,1712545788
180,burang,30.25,81.1667,-7.8,64,0,1.12,CN,1712545878
181,georgetown,5.4112,100.3354,33.3,55,20,1.54,MY,1712545747
182,tura,25.5198,90.2201,29.89,38,100,3.05,IN,1712545622
183,quellon,-43.1167,-73.6167,8.57,94,100,2.77,CL,1712545879
184,punta del este,-34.9667,-54.95,18.82,93,0,0.89,UY,1712545880
185,hawaiian paradise park,19.5933,-154.9731,22.8,96,100,2.57,US,1712545723
186,nemuro,43.3236,145.575,4.89,99,100,5.97,JP,1712545613
187,alvaraes,-3.2208,-64.8042,23.73,97,20,0.99,BR,1712545795
188,cidreira,-30.1811,-50.2056,20.43,93,100,2.12,BR,1712545883
189,wewak,-3.5534,143.6268,29.0,76,100,2.88,PG,1712545883
190,bhimunipatnam,17.8833,83.4333,29.73,74,34,5.71,IN,1712545883
191,mikkeli,61.6886,27.2723,4.06,93,0,4.12,FI,1712545884
192,cockburn town,21.4612,-71.1419,24.54,72,3,6.6,TC,1712545733
193,saudarkrokur,65.7461,-19.6394,-1.73,90,99,9.79,IS,1712545885
194,ilha de mocambique,-15.0342,40.7358,27.35,74,98,5.52,MZ,1712545695
195,hammerfest,70.6634,23.6821,-3.75,80,100,8.23,NO,1712545886
196,callao,-12.0667,-77.15,24.29,78,0,4.63,PE,1712545501
197,gallatin,45.6666,-111.2008,2.48,87,100,2.06,US,1712545886
198,bardai,11.65,7.2333,29.82,23,64,1.54,NG,1712545629
199,keflavik,64.0049,-22.5624,0.24,74,75,9.77,IS,1712545756
200,zhu cheng city,35.995,119.4026,23.5,34,73,4.33,CN,1712545888
201,idri,27.5,13.2667,16.93,16,0,3.44,LY,1712545888
202,new plymouth,-39.0667,174.0833,19.34,84,6,2.61,NZ,1712545888
203,gazojak,41.1875,61.4036,17.31,44,79,6.12,TM,1712545889
204,opuwo,-18.0607,13.84,18.75,45,47,1.03,NA,1712545635
205,hadibu,12.65,54.0333,26.4,75,14,2.64,YE,1712545890
206,naze,28.3667,129.4833,20.01,94,100,3.0,JP,1712545890
207,uturoa,-16.7333,-151.4333,29.46,73,100,4.36,PF,1712545619
208,praia da vitoria,38.7333,-27.0667,14.86,87,94,2.53,PT,1712545891
209,argo,37.6333,22.7333,14.41,64,0,8.61,GR,1712545892
210,bethel,41.3712,-73.414,6.45,63,0,0.0,US,1712545725
211,east end,34.5507,-92.341,18.84,59,17,2.34,US,1712545892
212,majuro,7.0897,171.3803,29.98,74,100,11.83,MH,1712545771
213,bluefields,12.0137,-83.7635,25.33,89,83,2.9,NI,1712545701
214,palangkaraya,-2.2,113.8333,32.79,57,86,1.38,ID,1712545873
215,mount gambier,-37.8333,140.7667,16.06,65,100,4.96,AU,1712545894
216,al jawf,29.5,38.75,14.74,50,0,3.71,SA,1712545845
217,shimoda,34.6667,138.95,17.84,87,100,5.34,JP,1712545895
218,puerto aysen,-45.4,-72.7,5.36,96,100,1.73,CL,1712545715
219,al ghayzah,16.2079,52.176,26.38,72,27,3.11,YE,1712545896
220,kununurra,-15.7667,128.7333,30.99,33,3,5.14,AU,1712545728
221,saint-joseph,-21.3667,55.6167,23.21,86,66,1.71,RE,1712545619
222,songea,-10.6833,35.65,17.32,97,100,0.36,TZ,1712545898
223,veraval,20.9,70.3667,27.2,56,0,5.1,IN,1712545898
224,hanzhong,33.0728,107.0303,20.8,48,100,0.67,CN,1712545793
225,xai-xai,-25.0519,33.6442,21.98,80,100,4.05,MZ,1712545899
226,okhotsk,59.3833,143.3,-1.22,96,100,5.65,RU,1712545899
227,floro,61.5996,5.0328,8.04,81,100,11.83,NO,1712545639
228,solleftea,63.1667,17.2667,-1.08,95,40,0.82,SE,1712545900
229,birobidzhan,48.8,132.95,1.57,45,99,6.64,RU,1712545900
230,badger,64.8,-147.5333,3.14,66,0,2.57,US,1712545605
231,rundu,-17.9333,19.7667,18.84,90,100,2.65,NA,1712545842
232,forster,-32.1667,152.5167,26.27,63,75,1.16,AU,1712545902
233,canutama,-6.5339,-64.3831,22.89,99,48,0.43,BR,1712545902
234,horodyshche,49.2849,31.4451,10.68,79,67,2.56,UA,1712545903
235,wailua homesteads,22.0669,-159.378,26.24,77,100,7.2,US,1712545602
236,viedma,-40.8135,-62.9967,17.24,48,99,5.17,AR,1712545641
237,sao joao do paraiso,-15.3136,-42.0144,16.64,87,0,2.02,BR,1712545747
238,zaragoza,41.6561,-0.8773,20.27,68,0,2.06,ES,1712545821
239,kudahuvadhoo,2.6708,72.8944,28.38,74,100,1.53,MV,1712545905
240,copala,16.65,-98.9833,25.0,73,0,1.62,MX,1712545656
241,ingeniero jacobacci,-41.3427,-69.5448,14.99,59,100,7.83,AR,1712545906
242,gunnison,38.7,-107.0673,-2.53,84,14,2.03,US,1712545906
243,murzuq,25.9155,13.9184,17.93,14,0,3.65,LY,1712545617
244,ataq,14.5377,46.8319,21.13,41,10,4.36,YE,1712545907
245,st. john's,47.5649,-52.7093,1.65,95,100,9.77,CA,1712545499
246,lautoka,-17.6167,177.4667,29.92,66,75,5.14,FJ,1712545908
247,utete,-7.986,38.758,22.94,97,97,1.42,TZ,1712545909
248,richards bay,-28.783,32.0377,19.79,83,100,2.21,ZA,1712545631
249,remire-montjoly,4.9167,-52.2667,24.02,100,20,1.03,GF,1712545910
250,qusmuryn,52.4503,64.6311,6.97,91,100,1.71,KZ,1712545910
251,fada n'gourma,12.0622,0.3578,31.47,43,4,3.11,BF,1712545910
252,kolonia,50.9333,6.95,14.05,86,89,1.54,DE,1712545911
253,buchanan,5.8808,-10.0467,26.59,88,100,2.24,LR,1712545911
254,astrakhan,46.3497,48.0408,4.93,93,0,1.0,RU,1712545912
255,aasiaat,68.7098,-52.8699,-8.66,94,98,1.92,GL,1712545780
256,prado,-17.3411,-39.2208,24.75,83,46,3.18,BR,1712545866
257,hohhot,40.8106,111.6522,16.34,32,10,2.36,CN,1712545913
258,arvayheer,46.2639,102.775,4.5,62,100,2.89,MN,1712545913
259,waddan,29.1614,16.139,15.57,37,0,1.27,LY,1712545914
260,vilyuchinsk,52.9306,158.4028,6.15,91,93,1.04,RU,1712545603
261,tolanaro,-25.0319,46.9987,22.85,89,100,4.05,MG,1712545601
262,zaozersk,69.4005,32.4476,-6.0,87,100,7.09,RU,1712545915
263,hashtrud,37.4779,47.0508,6.61,82,100,3.46,IR,1712545916
264,timbuktu,16.7735,-3.0074,29.9,11,2,4.35,ML,1712545916
265,morehead city,34.7229,-76.726,13.34,75,0,2.06,US,1712545673
266,hotan,37.0997,79.9269,16.61,22,5,1.95,CN,1712545626
267,greenland,43.0362,-70.8328,3.81,86,0,0.0,US,1712545917
268,mana,5.6592,-53.7767,25.83,84,96,2.94,GF,1712545918
269,talnakh,69.4865,88.3972,-7.66,91,100,9.93,RU,1712545776
270,mitchell,43.7094,-98.0298,6.99,81,100,5.14,US,1712545918
271,tabou,4.423,-7.3528,27.38,83,81,1.94,CI,1712545919
272,tianpeng,30.9866,103.9393,18.67,56,100,2.11,CN,1712545919
273,saint-louis,16.3333,-15.0,23.0,50,0,5.2,SN,1712545920
274,rosarito,32.3333,-117.0333,13.84,73,50,3.41,MX,1712545733
275,cherkasy,49.4285,32.0621,10.08,79,66,1.75,UA,1712545920
276,essaouira,31.5125,-9.77,16.41,87,0,8.77,MA,1712545921
277,alofi,-19.0595,-169.9187,26.94,83,100,6.17,NU,1712545739
278,gamba,-2.65,10.0,24.83,92,100,2.04,GA,1712545621
279,badiyah,22.45,58.8,24.89,50,10,2.12,OM,1712545922
280,susuman,62.7833,148.1667,-10.57,72,53,0.89,RU,1712545773
281,westende,51.1588,2.7683,10.77,90,20,2.06,BE,1712545923
282,sandakan,5.8402,118.1179,28.34,78,100,2.08,MY,1712545923
283,zavetnoye,47.1194,43.8903,10.55,61,5,1.65,RU,1712545924
284,lugoj,45.6886,21.9031,7.88,71,100,1.44,RO,1712545925
285,mazamari,-11.3258,-74.5308,21.45,99,79,1.11,PE,1712545925
286,petropavlovsk-kamchatsky,53.0452,158.6483,5.33,82,75,3.0,RU,1712545778
287,castillos,-34.1667,-53.8333,16.64,80,1,2.05,UY,1712545733
288,rongelap,11.1635,166.8941,27.3,80,100,8.93,MH,1712545927
289,nagercoil,8.1667,77.4333,29.76,70,84,1.93,IN,1712545927
290,ploudalmezeau,48.5333,-4.65,11.72,88,75,5.14,FR,1712545928
291,zeya,53.75,127.2667,-4.17,43,10,2.72,RU,1712545928
292,pemba,-12.974,40.5178,25.34,89,100,4.67,MZ,1712545929
293,gadzhiyevo,69.2551,33.3362,-5.63,86,100,6.49,RU,1712545623
294,hede,33.7681,120.2517,15.85,47,100,2.8,CN,1712545930
295,north bend,43.4065,-124.2243,10.09,76,100,2.57,US,1712545931
296,zakynthos,37.7914,20.8953,15.36,79,0,4.54,GR,1712545659
297,berezovo,63.9381,65.0419,-6.08,93,20,2.67,RU,1712545931
298,newman,37.3138,-121.0208,13.31,65,8,1.79,US,1712545676
299,ust-nera,64.5667,143.2,-6.34,84,90,2.12,RU,1712545717
300,pasni,25.2631,63.471,26.12,49,0,3.24,PK,1712545933
301,mahavelona,-17.6848,49.5087,23.26,89,27,2.13,MG,1712545933
302,luzilandia,-3.4578,-42.3703,23.36,98,100,1.36,BR,1712545642
303,floriano,-6.7669,-43.0225,23.96,91,62,1.3,BR,1712545341
304,turkmenabat,39.0733,63.5786,19.3,34,54,1.76,TM,1712545934
305,isla vista,34.4133,-119.861,15.94,64,0,3.09,US,1712545936
306,shihezi,44.3,86.0333,15.77,42,100,2.81,CN,1712545936
307,mus,39.0,41.75,6.02,94,100,2.02,TR,1712545937
308,la ronge,55.1001,-105.2842,0.34,99,78,1.82,CA,1712545937
309,sitka,57.0531,-135.33,3.94,81,100,5.66,US,1712545938
310,kayangel,8.0823,134.7173,28.27,76,58,6.53,PW,1712545938
311,donaghadee,54.6333,-5.5333,5.96,90,30,0.45,GB,1712545930
312,la paz,-16.5,-68.15,6.5,85,85,3.3,BO,1712545939
313,island harbour,50.724,-1.2758,11.07,89,100,2.24,GB,1712545940
314,kirk sandall,53.5621,-1.0688,11.61,87,100,4.06,GB,1712545940
315,nadi,-17.8,177.4167,30.0,66,75,5.14,FJ,1712545941
316,hugo,45.16,-92.9933,6.25,92,100,5.14,US,1712545803
317,khor,47.8861,134.9464,1.07,56,100,8.93,RU,1712545942
318,kavieng,-2.5744,150.7967,28.38,77,95,2.82,PG,1712545943
319,campbell river,50.0163,-125.2446,8.58,85,100,1.96,CA,1712545943
320,shanhecun,44.7,127.2,2.61,27,3,6.58,CN,1712545944
321,letterkenny,54.95,-7.7333,4.72,93,70,3.17,IE,1712545944
322,sisimiut,66.9395,-53.6735,-6.96,89,97,3.96,GL,1712545614
323,kapuskasing,49.4169,-82.4331,5.05,56,0,2.06,CA,1712545591
324,sinabang,2.4803,96.3801,29.04,76,82,1.06,ID,1712545945
325,golfito,8.639,-83.166,24.0,92,100,0.81,CR,1712545946
326,neftegorsk,52.802,51.166,4.66,89,96,3.1,RU,1712545946
327,cururupu,-1.8283,-44.8683,22.72,100,100,0.14,BR,1712545947
328,san matias,-16.3667,-58.4,26.06,84,94,2.2,BO,1712545947
329,san nicolas,18.1725,120.5953,31.39,58,8,5.71,PH,1712545947
330,el calafate,-50.3408,-72.2768,4.17,88,62,3.47,AR,1712545948
331,trairi,-3.2778,-39.2689,24.26,93,98,1.63,BR,1712545672
332,sale,34.0389,-6.8166,15.91,100,75,0.0,MA,1712545949
333,nelidovo,56.2211,32.7774,7.71,91,95,3.85,RU,1712545949
334,kindu,-2.95,25.95,20.54,99,100,0.85,CD,1712545950
335,ghormach,35.7306,63.7826,16.68,49,90,1.09,AF,1712545950
336,hassi messaoud,31.6804,6.0729,23.87,14,99,6.29,DZ,1712545950
337,saint-philippe,-21.3585,55.7679,23.77,86,63,1.85,RE,1712545727
338,hudiksvall,61.729,17.1036,4.37,86,31,4.54,SE,1712545952
339,boac,13.4463,121.84,28.49,72,99,2.9,PH,1712545953
340,holma,9.9008,13.0567,27.85,49,32,3.08,NG,1712545953
341,mbeya,-8.9,33.45,15.96,96,100,1.44,TZ,1712545953
342,klyuchi,52.2667,79.1667,5.95,77,100,2.55,RU,1712545764
343,brookings,44.3114,-96.7984,5.66,97,100,4.12,US,1712545496
344,huron,41.1501,-82.5499,12.69,60,100,5.57,US,1712545955
345,cobija,-11.0267,-68.7692,23.57,93,99,0.98,BO,1712545655
346,taltal,-25.4,-70.4833,17.6,83,22,0.96,CL,1712545956
347,kill devil hills,36.0307,-75.676,8.88,77,0,0.0,US,1712545956
348,nikolayevsk-on-amure,53.1406,140.73,-0.44,93,98,3.13,RU,1712545536
349,dalby,-27.1833,151.2667,25.62,38,0,3.37,AU,1712545693
350,muisne,0.6,-80.0333,25.35,82,92,1.63,EC,1712545958
351,san patricio,28.017,-97.5169,23.8,92,100,4.45,US,1712545958
352,buenavista,8.9769,125.4089,31.62,54,92,3.43,PH,1712545958
353,sandnessjoen,66.0217,12.6316,6.29,92,100,10.22,NO,1712545959
354,trevelin,-43.0858,-71.4639,10.45,95,99,1.05,AR,1712545959
355,sinjar,36.3209,41.8754,13.29,93,79,3.66,IQ,1712545960
356,nyala,12.05,24.8833,24.09,15,68,5.86,SD,1712545961
357,saint lucia,-27.5,153.0,31.11,56,20,3.6,AU,1712545961
358,emerald,-23.5333,148.1667,30.19,40,37,4.04,AU,1712545875
359,payson,40.0444,-111.7321,5.77,48,40,2.57,US,1712545962
360,talara,-4.5772,-81.2719,24.42,78,75,5.14,PE,1712545962
361,cascais,38.6979,-9.4215,16.39,92,58,7.6,PT,1712545963
362,bikenibeu village,1.3673,173.1241,28.31,81,30,8.04,KI,1712545963
363,las palmas,28.4204,-14.0131,17.44,59,75,5.14,ES,1712545816
364,faya-largeau,17.9257,19.1043,25.5,15,37,8.07,TD,1712545964
365,rio grande,-32.035,-52.0986,20.53,92,65,2.51,BR,1712545609
366,chunskiy,56.0815,99.6342,-2.96,74,100,5.81,RU,1712545965
367,saldanha,-33.0117,17.9442,14.03,93,74,3.54,ZA,1712545564
368,los alamos,35.8881,-106.307,5.92,30,0,2.57,US,1712545870
369,goundam,16.4145,-3.6708,29.58,12,61,3.99,ML,1712545966
370,mount isa,-20.7333,139.5,28.87,30,5,4.63,AU,1712545967
371,yung shue wan,22.2333,114.1167,29.68,82,99,0.89,HK,1712545967
372,gillette,44.2911,-105.5022,0.57,96,100,5.66,US,1712545968
373,bhuj,23.2667,69.6667,27.77,47,0,5.36,IN,1712545949
374,hobyo,5.3505,48.5268,28.61,78,80,3.45,SO,1712545968
375,ormara,25.2088,64.6357,26.2,64,0,3.23,PK,1712545969
376,acapulco de juarez,16.8634,-99.8901,24.9,88,0,2.57,MX,1712545969
377,tutayev,57.8853,39.5406,7.19,87,100,5.26,RU,1712545970
378,itoman,26.1247,127.6694,25.43,95,75,5.14,JP,1712545921
379,kavaratti,10.5669,72.642,29.27,70,85,2.65,IN,1712545970
380,namtsy,62.7161,129.6658,-5.19,80,99,2.84,RU,1712545971
381,harstad,68.799,16.5293,1.66,96,100,3.58,NO,1712545972
382,hamah,35.1318,36.7578,12.27,82,98,1.16,SY,1712545972
383,hola,51.5377,23.1902,13.1,86,100,2.93,PL,1712545973
384,laguna,38.421,-121.4238,16.1,43,0,2.06,US,1712545973
385,constitucion,-35.3333,-72.4167,13.33,77,19,4.5,CL,1712545973
386,dellys,36.9172,3.9131,20.24,39,100,5.47,DZ,1712545797
387,prince rupert,54.3161,-130.3201,4.05,93,100,4.12,CA,1712545809
388,belyy yar,53.6039,91.3903,0.94,47,40,5.0,RU,1712545975
389,cidade velha,14.9167,-23.6167,22.26,73,20,10.29,CV,1712545975
390,fonte boa,-2.4959,-66.2662,23.37,98,61,1.3,BR,1712545975
391,tangalle,6.024,80.7911,28.09,76,100,1.83,LK,1712545976
392,luganville,-15.5333,167.1667,27.9,76,99,4.17,VU,1712545976
393,sant lluis,39.8526,4.2594,18.22,72,0,4.12,ES,1712545977
394,pampa del indio,-26.0647,-59.919,20.23,98,98,1.92,AR,1712545977
395,kilindoni,-7.9139,39.6668,27.07,82,100,5.26,TZ,1712545977
396,cabo san lucas,22.8909,-109.9124,21.95,61,0,4.63,MX,1712545941
397,codajas,-3.8367,-62.0569,23.49,98,68,0.65,BR,1712545978
398,solnechnyy,50.7214,136.6319,-3.87,90,100,3.18,RU,1712545979
399,roma,43.2128,-75.4557,6.04,67,0,0.0,US,1712545868
400,arenapolis,-14.4503,-56.8461,22.79,96,100,1.58,BR,1712545979
401,yorkton,51.2167,-102.4677,4.12,83,95,3.05,CA,1712545980
402,vilyuysk,63.7553,121.6247,-4.44,92,100,1.79,RU,1712545980
403,arendal,58.4615,8.7725,6.89,95,100,6.18,NO,1712545981
404,yacuiba,-22.038,-63.6797,20.0,98,100,1.07,BO,1712545981
405,bol,13.4586,14.7147,26.57,50,14,4.62,TD,1712545982
406,aconibe,1.2968,10.9369,20.19,99,100,0.25,GQ,1712545982
407,labytnangi,66.6572,66.4183,-11.46,94,41,4.37,RU,1712545982
408,gizo,-8.103,156.8419,28.7,72,100,4.33,SB,1712545983
409,mulchen,-37.7167,-72.2333,13.25,82,100,1.57,CL,1712545983
410,lensk,60.7253,114.9278,0.62,70,99,1.93,RU,1712545984
411,pekanbaru,0.5333,101.45,28.18,83,40,0.0,ID,1712545984
412,meadow lakes,61.6247,-149.6011,5.47,57,0,3.09,US,1712545985
413,hampton bays,40.869,-72.5176,6.6,84,75,5.36,US,1712545983
414,severo-yeniseyskiy,60.3725,93.0408,-5.79,83,68,0.89,RU,1712545986
415,el alto,-4.2714,-81.2147,22.81,79,82,5.6,PE,1712545721
416,touros,-5.1989,-35.4608,25.59,91,43,3.65,BR,1712545625
417,santaquin,39.9755,-111.7852,5.1,50,18,2.24,US,1712545987
418,hilo,19.7297,-155.09,23.49,98,100,2.57,US,1712545987
419,lionel town,17.8101,-77.2406,28.94,82,6,2.61,JM,1712545988
420,antalaha,-14.9003,50.2788,23.68,89,11,2.58,MG,1712545989
421,tamanrasset,22.785,5.5228,23.95,11,0,8.23,DZ,1712545989
422,wenxing,28.6667,112.8833,16.24,80,100,2.46,CN,1712545990
423,mogadishu,2.0371,45.3438,28.68,71,100,2.8,SO,1712545990
424,yeppoon,-23.1333,150.7333,25.88,78,29,4.3,AU,1712545698
425,namibe,-15.1961,12.1522,21.83,80,87,2.5,AO,1712545991
426,energetik,51.7445,58.7934,5.32,95,96,3.04,RU,1712545991
427,manta,-0.95,-80.7333,26.67,74,40,5.81,EC,1712545992
428,meadow lake,34.8014,-106.5436,12.74,22,6,1.9,US,1712545992
429,markovo,57.3206,107.0881,2.36,98,100,4.44,RU,1712545993
430,mata-utu,-13.2816,-176.1745,29.69,73,87,2.85,WF,1712545770
431,akureyri,65.6835,-18.0878,-2.12,97,100,3.9,IS,1712545945
432,aykhal,66.0,111.5,-10.32,61,4,1.57,RU,1712545994
433,port alfred,-33.5906,26.891,17.32,91,100,1.34,ZA,1712545724
434,touggourt,33.1053,6.058,23.11,14,100,3.94,DZ,1712545995
435,krasnyy chikoy,50.3643,108.7512,9.5,49,29,2.16,RU,1712545995
436,kenai,60.5544,-151.2583,4.05,54,0,4.12,US,1712545750
437,howard springs,-12.497,131.047,32.68,59,68,3.3,AU,1712545997
438,mbuji-mayi,-6.15,23.6,21.17,96,89,0.36,CD,1712545997
439,cambridge,43.3601,-80.3127,9.05,62,75,2.57,CA,1712545372
440,nizhnevartovsk,60.9344,76.5531,-3.99,50,0,7.0,RU,1712545998
441,fort bragg,35.139,-79.006,12.33,67,0,0.0,US,1712545998
442,glace bay,46.1969,-59.957,2.25,85,100,4.02,CA,1712545999
443,auki,-8.7676,160.7034,28.84,78,95,2.61,SB,1712545999
444,ruidoso,33.3317,-105.673,8.31,15,0,3.6,US,1712545871
445,port saint john's,-31.6229,29.5448,20.78,79,100,6.98,ZA,1712546000
446,sidhi,24.4167,81.8833,30.29,29,5,3.96,IN,1712546000
447,rondonopolis,-16.4708,-54.6356,23.88,91,77,1.11,BR,1712545992
448,leitchfield,37.48,-86.2939,18.14,87,98,5.99,US,1712546001
449,ketchikan,55.3422,-131.6461,5.26,87,100,4.63,US,1712545813
450,thai nguyen,21.5928,105.8442,21.88,91,100,1.88,VN,1712546003
451,ierapetra,35.01,25.7353,18.41,56,4,6.71,GR,1712546003
452,son tay,21.1378,105.505,21.96,90,100,3.75,VN,1712546003
453,autun,46.95,4.3,10.41,100,55,0.97,FR,1712546004
454,kruisfontein,-34.0033,24.7314,16.66,91,100,1.15,ZA,1712546005
455,kartuzy,54.3342,18.1974,12.1,79,0,1.03,PL,1712546005
456,labrador city,52.9463,-66.9114,-3.08,95,100,1.3,CA,1712545878
457,fale old settlement,-9.3852,-171.2468,29.99,70,5,2.66,TK,1712546006
458,buka,40.8108,69.1986,15.82,48,74,0.91,UZ,1712546006
459,colonia,50.9333,6.95,14.05,86,89,1.54,DE,1712545911
460,la gi,10.6667,107.7833,31.87,54,28,5.68,VN,1712546007
461,horta,38.5333,-28.6333,13.9,89,95,2.24,PT,1712546008
462,freeport,40.6576,-73.5832,8.87,85,0,2.06,US,1712546008
463,lucapa,-8.4192,20.7447,18.58,98,98,0.86,AO,1712546009
464,caleta de carquin,-11.0925,-77.6267,22.26,83,100,3.48,PE,1712546009
465,yarmouth,41.7057,-70.2286,4.98,86,0,3.13,US,1712546010
466,san borja,-14.8167,-66.85,24.11,97,99,0.99,BO,1712546010
467,hengchun,22.0042,120.7439,27.93,67,6,5.71,TW,1712546010
468,pointe aux piments,-20.0628,57.5131,25.85,89,1,2.39,MU,1712546011
469,ploneour-lanvern,47.9,-4.2833,11.18,93,100,4.63,FR,1712546012
470,katsuura,35.1333,140.3,18.03,90,100,4.66,JP,1712546012
471,kattivakkam,13.2167,80.3167,30.07,63,15,6.04,IN,1712546013
472,birao,10.2849,22.7882,24.62,59,69,1.72,CF,1712546013
473,tindouf,27.6711,-8.1474,14.49,79,0,8.04,DZ,1712546014
474,ain taya,36.7933,3.2869,27.91,18,0,6.17,DZ,1712546014
475,lincheng,19.9078,109.6858,28.43,73,28,3.46,CN,1712546014
476,xinyu,27.8043,114.9334,16.08,89,99,2.76,CN,1712546015
477,puerto deseado,-47.7503,-65.8938,11.23,42,3,4.38,AR,1712546015
478,bandar labuan,5.2888,115.2692,27.72,77,83,0.42,MY,1712545776
479,nantucket,41.2835,-70.0995,2.86,83,0,3.09,US,1712545944
480,sao miguel do araguaia,-13.275,-50.1628,23.61,91,95,1.94,BR,1712546017
481,jiayuguan,39.8167,98.3,11.0,23,1,2.22,CN,1712546017
482,gangtok,27.3333,88.6167,24.29,25,0,1.52,IN,1712546017
483,igarka,67.4667,86.5833,-5.55,83,100,7.15,RU,1712546018
484,nema,57.5067,50.5011,-1.47,92,90,2.33,RU,1712546018
485,tazacorte,28.629,-17.9293,17.54,59,0,3.09,ES,1712545951
486,ghat,24.9647,10.1728,22.21,17,0,2.17,LY,1712545919
487,san luis de la loma,17.2706,-100.8939,24.89,75,2,3.92,MX,1712546019
488,ribadesella,43.4614,-5.0596,12.75,68,95,3.4,ES,1712546020
489,tsiombe,-25.3,45.4833,21.5,87,100,6.11,MG,1712545756
490,samarkand,39.6542,66.9597,15.68,44,64,5.14,UZ,1712546021
491,ciudad lazaro cardenas,17.9583,-102.2,23.29,79,18,2.95,MX,1712546021
492,khair,27.95,77.8333,30.17,10,0,1.11,IN,1712546021
493,mont-joli,48.5839,-68.1921,1.02,83,64,2.71,CA,1712545881
494,aripuana,-9.1667,-60.6333,23.08,99,62,0.28,BR,1712545739
495,tosontsengel,48.7567,98.2839,5.76,55,45,1.73,MN,1712546023
496,umea,63.8284,20.2597,0.51,93,0,1.54,SE,1712546023
497,agat village,13.3886,144.6585,31.09,70,23,2.68,GU,1712546023
498,obock,12.25,43.0833,22.34,81,70,6.31,DJ,1712546024
499,ivanteyevka,55.9711,37.9208,9.55,92,100,2.24,RU,1712546024
500,garachico,28.7781,-17.7646,16.06,59,0,3.09,ES,1712546025
501,mandapeta,16.8667,81.9333,31.19,56,5,5.44,IN,1712546025
502,colon,9.3592,-79.9014,26.06,85,100,2.24,PA,1712546026
503,zhongshu,24.5167,103.7667,22.38,44,71,2.43,CN,1712546026
504,quelimane,-17.8786,36.8883,22.54,96,35,1.73,MZ,1712546027
505,kamina,-8.7386,24.9906,18.21,97,100,1.39,CD,1712546028
506,sabang,5.8933,95.3214,28.96,70,22,4.82,ID,1712546028
507,kotel'nich,58.3089,48.348,0.37,87,100,3.38,RU,1712546029
508,axim,4.8699,-2.2405,27.54,86,56,3.05,GH,1712546029
509,alesund,62.4723,6.1549,9.08,66,17,4.63,NO,1712546030
510,ust-tsilma,65.441,52.1498,-11.33,97,99,0.89,RU,1712546030
511,al muwayh,22.4333,41.7583,22.72,57,99,0.56,SA,1712546030
512,choyr,46.3611,108.3611,9.38,45,23,3.6,MN,1712546031
513,el jadid,33.2549,-8.506,15.89,76,13,4.07,MA,1712546031
514,howrah,22.5892,88.3103,28.0,57,75,2.57,IN,1712546032
515,xam nua,20.4197,104.0439,32.97,37,3,0.98,LA,1712546032
516,loa janan,-0.583,117.095,31.93,60,100,2.26,ID,1712546032
517,shingu,33.7333,135.9833,16.9,94,100,2.68,JP,1712546033
518,nastola,60.95,25.9333,2.13,91,0,3.37,FI,1712546033
519,okondja,-0.6549,13.6753,21.67,99,100,0.63,GA,1712546034
520,beinamar,8.6698,15.3813,26.65,57,95,2.01,TD,1712546034
521,nizhneudinsk,54.9076,99.0276,0.73,60,93,5.4,RU,1712546034
522,daru,-9.0763,143.2092,30.42,70,100,2.76,PG,1712546035
523,felipe carrillo puerto,19.5833,-88.05,24.56,78,0,2.62,MX,1712546035
524,itaituba,-4.2761,-55.9836,23.74,98,64,0.65,BR,1712545798
525,figuig (centre),32.1089,-1.2286,21.25,16,100,5.0,MA,1712546036
526,contamana,-7.3333,-75.0167,24.19,90,57,0.95,PE,1712546037
527,bethanie,-26.4833,17.15,10.94,71,0,4.27,NA,1712546037
528,zabaykal'sk,49.6333,117.3167,2.37,16,0,3.81,RU,1712546037
529,trapani,37.8333,12.6667,14.12,21,61,1.5,IT,1712546038
530,chicoana,-25.1009,-65.5331,16.15,89,9,0.86,AR,1712545993
531,champerico,14.3,-91.9167,28.48,73,100,4.2,GT,1712546039
532,kuvshinovo,57.0295,34.1725,7.92,89,100,4.54,RU,1712546039
533,umm kaddadah,13.6017,26.6876,22.21,16,6,5.62,SD,1712546040
534,sos'va,59.1766,61.8558,0.03,98,94,4.92,RU,1712546040
535,la romana,18.4273,-68.9728,26.2,94,75,0.0,DO,1712546029
536,timaru,-44.4,171.25,16.15,79,5,2.24,NZ,1712546041
537,port douglas,-16.4833,145.4667,28.86,68,100,3.14,AU,1712545989
538,rudsar,37.1376,50.288,12.05,82,100,2.3,IR,1712546042
539,iglino,54.8324,56.4126,4.25,98,100,2.71,RU,1712546042
540,junin de los andes,-39.9504,-71.0694,11.81,83,86,3.0,AR,1712546043
541,chibuto,-24.6867,33.5306,20.3,86,100,1.96,MZ,1712546043
542,sambava,-14.2667,50.1667,24.42,89,33,3.44,MG,1712546044
543,lerwick,60.1545,-1.1494,9.0,73,76,13.61,GB,1712546044
544,lazaro cardenas,17.9583,-102.2,23.29,79,18,2.95,MX,1712546021
545,pionerskiy,54.9508,20.2275,11.75,78,54,2.82,RU,1712546045
546,kotlas,61.2611,46.6556,-3.3,89,100,1.34,RU,1712546045
547,mount darwin,-16.7725,31.5838,16.98,99,52,1.4,ZW,1712546046
548,half moon bay,37.4636,-122.4286,13.39,75,0,8.23,US,1712545828
549,najran,17.4924,44.1277,23.36,54,13,2.07,SA,1712545757
550,tofol,5.3248,163.0078,28.88,84,100,5.66,FM,1712546047
551,kralendijk,12.15,-68.2667,27.99,78,47,8.23,BQ,1712546048
552,brainerd,46.358,-94.2008,4.16,94,100,4.12,US,1712546048
553,chandler,33.3062,-111.8412,20.5,22,0,1.54,US,1712546035
554,flying fish cove,-10.4217,105.6791,28.82,74,40,5.66,CX,1712546049
555,wajir,1.7471,40.0573,26.07,83,100,2.57,KE,1712546049
556,simanggang,1.2472,111.4528,32.91,59,56,0.83,MY,1712546050
557,hauterive,46.0901,3.4459,10.42,85,89,0.78,FR,1712545837
558,thunder bay,48.4001,-89.3168,1.72,84,99,2.47,CA,1712546051
559,kampene,-3.6,26.6667,19.93,100,99,0.67,CD,1712546051
560,ivdel',60.6911,60.4206,-2.21,82,54,3.13,RU,1712546051
561,kunduz,36.75,68.75,19.0,52,30,0.45,AF,1712546052
562,guelendeng,10.9176,15.5501,26.94,58,47,2.03,TD,1712546052
563,muravlenko,63.7898,74.523,-4.36,95,100,10.2,RU,1712546053
564,jishui,33.7333,115.4,20.08,52,87,1.98,CN,1712546053
565,runka,12.4479,7.3092,30.77,22,96,1.29,NG,1712546054
566,vershino-darasunskiy,52.35,115.5167,2.53,19,0,2.12,RU,1712546054
567,kyneton,-37.25,144.4333,20.1,54,2,3.13,AU,1712546055
568,chibougamau,49.9168,-74.3659,-1.38,98,11,1.84,CA,1712546055
569,kalix,65.853,23.1565,-2.95,98,100,0.96,SE,1712546055
570,dickinson,29.4608,-95.0513,23.95,90,100,4.63,US,1712546056
571,cartagena del chaira,1.3349,-74.8429,23.03,97,95,0.93,CO,1712546056
572,maragogi,-9.0122,-35.2225,26.22,84,100,1.78,BR,1712546057
573,souillac,-20.5167,57.5167,23.53,88,3,1.54,MU,1712546057
574,verkhnevilyuysk,63.4453,120.3167,-3.22,93,100,1.32,RU,1712546058
575,vytegra,61.0064,36.4481,6.31,86,100,6.71,RU,1712546058
576,kenora,49.8167,-94.4337,4.26,80,60,3.83,CA,1712546058
